[
    {
        "label": "Hostotipaquillo",
        "lat": 21.03527,
        "lng": -103.93338
    },
    {
        "label": "Huejucar",
        "lat": 22.29514,
        "lng": -103.15841
    },
    {
        "label": "Huejuquilla-El-Alto",
        "lat": 22.65633,
        "lng": -103.96065
    },
    {
        "label": "Ixtlahuacan-de-los-Membrillos",
        "lat": 20.39319,
        "lng": -103.14414
    },
    {
        "label": "Ixtlahuacan-del-Rio",
        "lat": 21.10000,
        "lng": -102.93333
    },
    {
        "label": "Jalostotitlan",
        "lat": 21.16638,
        "lng": -102.46569
    },
    {
        "label": "Jamay",
        "lat": 20.29394,
        "lng": -102.70892
    },
    {
        "label": "Jilotlan-de-los-Dolores",
        "lat": 19.37046,
        "lng": -103.01974
    },
    {
        "label": "Jocotepec",
        "lat": 20.29178,
        "lng": -103.40409
    },
    {
        "label": "Juanacatlan",
        "lat": 20.50841,
        "lng": -103.16846
    }
]
